[
{
"id": "serengeti_hodenhagen",
"type": "wildpark",
"name": "Serengeti-Park Hodenhagen",
"lat": 52.7618,
"lon": 9.586,
"city": "Hodenhagen",
"country": "DE",
"usp": ["Autosafari", "Freigehege"],
"poetry": "Giraffen über der Windschutzscheibe – Safari im Norden.",
"verified": true
},
{
"id": "wildpark_poing",
"type": "wildpark",
"name": "Wildpark Poing",
"lat": 48.1756,
"lon": 11.8303,
"city": "Poing",
"country": "DE",
"usp": ["Waldpfade", "großer Spielplatz"],
"poetry": "Hirschtritt im Moos, Kinderlachen im Holz.",
"verified": true
},
{
"id": "schwarze_berge",
"type": "wildpark",
"name": "Wildpark Schwarze Berge",
"lat": 53.4233,
"lon": 9.9285,
"city": "Rosengarten (Harburg)",
"country": "DE",
"usp": ["Greifvogelshow", "Aussichtsturm"],
"poetry": "Heidewind und Habichtschatten – Wege klettern in die Kronen.",
"verified": true
},
{
"id": "wisentgehege_springe",
"type": "wildpark",
"name": "Wisentgehege Springe",
"lat": 52.2357,
"lon": 9.5548,
"city": "Springe",
"country": "DE",
"usp": ["Wisent & Wolf", "weite Rundwege"],
"poetry": "Schwere Schritte, leichte Herzen – Urkraft im Grünen.",
"verified": true
},
{
"id": "wildpark_eekholt",
"type": "wildpark",
"name": "Wildpark Eekholt",
"lat": 53.9127,
"lon": 10.0696,
"city": "Großenaspe",
"country": "DE",
"usp": ["Norddeutsche Tierwelt", "Naturlehrpfade"],
"poetry": "Zwischen Knicks und Bächen flüstert der Norden Geschichten.",
"verified": true
},
{
"id": "wildpark_reuschenberg",
"type": "wildpark",
"name": "Wildpark Reuschenberg",
"lat": 51.055397,
"lon": 6.982769,
"city": "Leverkusen",
"country": "DE",
"usp": ["Streicheltiere", "Spielbereiche"],
"poetry": "Sanfte Pfoten, kurze Beine – ein Park für ruhige Wunder.",
"verified": true
},
{
"id": "givskud_zoo",
"type": "wildpark",
"name": "GIVSKUD ZOO – ZOOTOPIA (Safari)",
"lat": 55.8242,
"lon": 9.2578,
"city": "Givskud",
"country": "DK",
"usp": ["Drive-Through-Safari", "Großtiere"],
"poetry": "Der Weg ist Wildnis – Löwenbrüllen im Rückspiegel.",
"verified": true
},
{
"id": "ree_park_safari",
"type": "wildpark",
"name": "Ree Park Safari (Ebeltoft)",
"lat": 56.2746,
"lon": 10.6641,
"city": "Ebeltoft",
"country": "DK",
"usp": ["Safari-Train", "Afrika & Amerika Areale"],
"poetry": "Savannengras im Wind – der Zug summt durch Geschichten.",
"verified": true
},
{
"id": "knuthenborg_safari",
"type": "wildpark",
"name": "Knuthenborg Safaripark",
"lat": 54.8167,
"lon": 11.4228,
"city": "Maribo/Lolland",
"country": "DK",
"usp": ["größter Safari-Park Dänemarks", "Auto- & Bus-Safari"],
"poetry": "Breite Alleen, lange Hälse – Urlaub im eigenen Tempo.",
"verified": true
},
{
"id": "skandinavisk_dyrepark",
"type": "wildpark",
"name": "Skandinavisk Dyrepark",
"lat": 56.3918,
"lon": 10.7881,
"city": "Kolind/Djursland",
"country": "DK",
"usp": ["Eisbärenanlage", "nordische Tierwelt"],
"poetry": "Weites Gras, weiße Pfoten – der Norden atmet weit.",
"verified": true
},
{
"id": "jaegersborg_dyrehave",
"type": "wildpark",
"name": "Dyrehaven (Jægersborg Deer Park)",
"lat": 55.7753,
"lon": 12.5726,
"city": "Klampenborg",
"country": "DK",
"usp": ["freilebende Hirsche", "UNESCO-Kulturlandschaft"],
"poetry": "Alte Eichen, rote Hirsche – Kopenhagen hört das Blätterrauschen.",
"verified": true
}
]
