[
{
"id": "zoo_berlin",
"type": "zoo",
"name": "Zoologischer Garten Berlin",
"lat": 52.50729,
"lon": 13.3369,
"city": "Berlin",
"country": "DE",
"usp": ["Pandas", "Aquarium", "zentrale Lage"],
"poetry": "Zwischen Gedächtniskirche und Giraffen wächst Großstadt-Zauber mit Pfotentritt.",
"verified": true
},
{
"id": "tierpark_berlin",
"type": "zoo",
"name": "Tierpark Berlin",
"lat": 52.50028,
"lon": 13.525,
"city": "Berlin",
"country": "DE",
"usp": ["riesiges Gelände", "viel Platz für Kinder", "Schloss Friedrichsfelde"],
"poetry": "Weite Wiesen, leise Wege – die Stadt bleibt draußen, Abenteuer drin.",
"verified": true
},
{
"id": "hagenbeck_hamburg",
"type": "zoo",
"name": "Tierpark Hagenbeck",
"lat": 53.59639,
"lon": 9.93778,
"city": "Hamburg",
"country": "DE",
"usp": ["Tropen-Aquarium", "historische Freianlagen"],
"poetry": "Nordwind trifft Tropenluft – Seelöwen singen am Hanse-Horizont.",
"verified": true
},
{
"id": "wilhelma_stuttgart",
"type": "zoo",
"name": "Wilhelma – Zoologisch-Botanischer Garten",
"lat": 48.805,
"lon": 9.205,
"city": "Stuttgart",
"country": "DE",
"usp": ["Zoo + Botanischer Garten", "maurische Architektur"],
"poetry": "Zwischen Palmen und Pavillons tanzt der Tag in zwei Welten.",
"verified": true
},
{
"id": "zoo_leipzig",
"type": "zoo",
"name": "Zoo Leipzig (Gondwanaland)",
"lat": 51.3471,
"lon": 12.3686,
"city": "Leipzig",
"country": "DE",
"usp": ["Tropenhalle Gondwanaland", "Themenwelten"],
"poetry": "Ein Schritt, drei Kontinente – Wärme, Dschungel, Wunder.",
"verified": true
},
{
"id": "zoo_koeln",
"type": "zoo",
"name": "Kölner Zoo",
"lat": 50.957,
"lon": 6.9608,
"city": "Köln",
"country": "DE",
"usp": ["Elefantenpark", "Hippodom"],
"poetry": "Zwischen Dom und Rhein dreht das Lachen seine Runden.",
"verified": true
},
{
"id": "zoo_frankfurt",
"type": "zoo",
"name": "Zoo Frankfurt",
"lat": 50.1164,
"lon": 8.7088,
"city": "Frankfurt am Main",
"country": "DE",
"usp": ["Nachtzoo (Grzimek-Haus)", "zentral"],
"poetry": "Wenn die Stadt glitzert, erwacht die Nacht im Tierreich.",
"verified": true
},
{
"id": "erlebnis_zoo_hannover",
"type": "zoo",
"name": "Erlebnis-Zoo Hannover",
"lat": 52.391,
"lon": 9.7871,
"city": "Hannover",
"country": "DE",
"usp": ["Themenwelten", "Bootsfahrt Sambesi"],
"poetry": "Vom Sambesi bis Yukon: Ein Tag reist weiter als die Uhr.",
"verified": true
},
{
"id": "zoom_gelsenkirchen",
"type": "zoo",
"name": "ZOOM Erlebniswelt",
"lat": 51.5491,
"lon": 7.0675,
"city": "Gelsenkirchen",
"country": "DE",
"usp": ["Alaska–Afrika–Asien", "familienfreundlich"],
"poetry": "Drei Welten, ein Spaziergang – mit Eisbärblick und Savannenduft.",
"verified": true
},
{
"id": "zoo_rostock",
"type": "zoo",
"name": "Zoo Rostock (Darwineum/Polarium)",
"lat": 54.1065,
"lon": 12.079,
"city": "Rostock",
"country": "DE",
"usp": ["Darwineum", "Polarium"],
"poetry": "Vom Urknall zum Eisbär – Wissen leuchtet, Kinder staunen.",
"verified": true
},
{
"id": "copenhagen_zoo",
"type": "zoo",
"name": "København Zoo",
"lat": 55.6726,
"lon": 12.5211,
"city": "København/Frederiksberg",
"country": "DK",
"usp": ["Elefanthuset", "Pandas", "Aussichtsturm"],
"poetry": "Zwischen Backstein und Birken steht der Norden Auge in Auge.",
"verified": true
},
{
"id": "odense_zoo",
"type": "zoo",
"name": "Odense Zoo",
"lat": 55.3922,
"lon": 10.3795,
"city": "Odense",
"country": "DK",
"usp": ["Flusslage", "Themenwelten"],
"poetry": "Am Wasser entlang – ein Bogen voller Begegnungen.",
"verified": true
},
{
"id": "aalborg_zoo",
"type": "zoo",
"name": "Aalborg Zoo",
"lat": 57.0477,
"lon": 9.9049,
"city": "Aalborg",
"country": "DK",
"usp": ["familienfreundlich", "zentrale Lage"],
"poetry": "Nordlicht im Blick, neugierige Nasen an der Scheibe.",
"verified": true
},
{
"id": "randers_regnskov",
"type": "zoo",
"name": "Randers Regnskov",
"lat": 56.4613,
"lon": 10.0365,
"city": "Randers",
"country": "DK",
"usp": ["Tropenkuppeln", "Freiflug-Voliere"],
"poetry": "Unter Glas regnet der Wald – und die Zeit wird warm.",
"verified": true
}
]
